{"0": {"name": "Kuala Lumpur International Airport", "address": "KLIA, KLIA Arrival, Kampung Chincang, Selangor, 64000, Malaysia", "latitude": 2.74552395, "longitude": 101.701506799265}, "1": {"name": "Changi Airport Singapore", "address": "Changi Airport, T1 Boulevard, Loyang, Southeast, 819643, Singapore", "latitude": 1.3573382, "longitude": 103.9885647}, "2": {"name": "Chhatrapati Shivaji International Airport", "address": "Chhatrapati Shivaji International Airport, Air India Road, L Ward, Zone 3, Mumbai, Mumbai Suburban, Maharashtra, 400098, India", "latitude": 19.0902005, "longitude": 72.863808447654}, "3": {"name": "Sheremetyevo International Airport", "address": "Международный аэропорт Шереметьево, Шереметьевское шоссе, Химки, городской округ Химки, Московская область, ЦФО, 141426, РФ", "latitude": 55.9732701, "longitude": 37.4148838592699}, "4": {"name": "Haneda Airport", "address": "東京国際空港, 東京都大田区羽田空港３丁目, 環八通り, 大田区, 東京都, 関東地方, 144-0000, 日本", "latitude": 35.54551105, "longitude": 139.781106515368}, "5": {"name": "Beijing Capital International Airport", "address": "北京首都国际机场, 航平北路, 朝阳区 / Chaoyang, 北京市, 101312, 中国", "latitude": 40.07928545, "longitude": 116.594560692358}, "6": {"name": "Shanghai Pudong International Airport", "address": "上海浦东国际机场, 申嘉湖高速, 浦东新区, 上海市, 中国", "latitude": 31.14045585, "longitude": 121.80501881597}, "7": {"name": "Incheon International Airport", "address": "인천공항, 272, 제2터미널대로, 운서동, 중구, 인천, 22382, 대한민국", "latitude": 37.4643856, "longitude": 126.441055189731}, "8": {"name": "Soekarno-Hatta International Airport", "address": "Bandara Internasional Soekarno-Hatta, Jalan Raya Bandara, Tangerang, Banten, 19120, NKRI", "latitude": -6.12528435, "longitude": 106.659799227652}, "9": {"name": "Heathrow Airport", "address": "Heathrow, Airside Road Tunnel, Harmondsworth, Hillingdon, London, Greater London, England, TW6 1JJ, UK", "latitude": 51.4677705, "longitude": -0.459082141573543}, "10": {"name": "Paris Charles de Gaulle", "address": "Charles de Gaulle, Promenade des Champs Elysées, Champs-Élysées, 8e, Paris, Île-de-France, France métropolitaine, 75008, France", "latitude": 48.86749075, "longitude": 2.31360057872807}, "11": {"name": "Stockholm-Arlanda", "address": "Arlanda, Tullvägen, Lundagård, Sigtuna kommun, Sigtuna, Stockholms län, Svealand, 19045, Sverige", "latitude": 59.6467921, "longitude": 17.9370443341945}, "12": {"name": "Victoria Falls Airport", "address": "Victoria Falls Airport, A8, Village, Hwange, Matabeleland North, Zimbabwe", "latitude": -18.09776245, "longitude": 25.8432527058146}, "13": {"name": "Sao Paulo International Airport", "address": "GRU Airport, Alameda Carajas, Aeroporto Internacional Governador André Franco Montoro, Guarulhos, Região Imediata de São Paulo, RMSP, Região Intermediária de São Paulo, SP, Região Sudeste, 07180-230, Brasil", "latitude": -23.43779495, "longitude": -46.4813556405189}}